"ID","Lat","Long","Elevation","State","Name","C1","C2","C3","UTCOffset"
"USH00011084",31.0581,-87.0547,25.9,"AL","BREWTON 3 SSE","USH00","USH00257515","USH00",6
"USH00",30.5467,-87.8808,7,"AL","FAIRHOPE 2 NE","USH00","USH00","USH00",6
"USH00",32.8347,-88.1342,38.1,"AL","GAINESVILLE LOCK","USH00135952","USH00","USH00368905",6
"USH00",32.7017,-87.5808,67.1,"AL","GREENSBORO","USH00","USH00","USH00",6
"USH00012813",31.87,-86.2542,132,"AL","HIGHLAND HOME","USH00","USH00257715","USH00",6
"USH00",34.7442,-87.5997,164.6,"AL","MUSCLE SHOALS AP","USH00","USH00","USH00",6
"USH00",34.1736,-86.8133,243.8,"AL","SAINT BERNARD","USH00137147","USH00","USH00369050",6
"USH00",34.6736,-86.0536,187.5,"AL","SCOTTSBORO","USH00","USH00","USH00",6
"USH00013160",32.41,-87.0153,44.8,"AL","SELMA","USH00","USH00258133","USH00",6
"USH00011694",33.4164,-86.135,136.6,"AL","TALLADEGA","USH00","USH00253540","USH00",6
"USH00",31.5411,-87.8833,118.9,"AL","THOMASVILLE","USH00137161","USH00","USH00369298",6
"USH00",31.8075,-85.9722,165.2,"AL","TROY","USH00","USH00","USH00",6
"USH00013511",33.2119,-87.6161,51.5,"AL","TUSCALOOSA ACFD","USH00","USH00258395","USH00",6
"USH00",32.0142,-85.7464,134.1,"AL","UNION SPRINGS 9 S","USH00","USH00","USH00",6
"USH00",34.5667,-85.6128,323.7,"AL","VALLEY HEAD","USH00137979","USH00","USH00369408",6
"USH00018178",34.8822,-91.2153,56.4,"AR","BRINKLEY","USH00","USH00260691","USH00",6
"USH00",35.0842,-92.4289,96,"AR","CONWAY","USH00","USH00260688","USH00",6
"USH00",36.4197,-90.5858,91.4,"AR","CORNING","USH00141740","USH00","USH00380074",6
"USH00",36.4164,-93.7917,432.8,"AR","EUREKA SPRINGS 3 WNW","USH00","USH00","USH00",6
"USH00018323",36.1006,-94.1744,387.1,"AR","FAYETTEVILLE EXP STN","USH00","USH00261071","USH00",6
"USH00",36.4261,-94.4481,384,"AR","GRAVETTE","USH00","USH00","USH00",6
"USH00",36.4947,-91.535,153,"AR","MAMMOTH SPRING","USH00141867","USH00","USH00380165",6
"USH00",34.5731,-94.2494,344.4,"AR","MENA","USH00142602","USH00","USH00",6
"USH00018380",35.6042,-91.2744,69.5,"AR","NEWPORT","USH00","USH00262573","USH00",6
"USH00018385",35.5125,-93.8683,253,"AR","OZARK 2","USH00","USH00","USH00",6
"USH00018454",34.2256,-92.0189,65.5,"AR","PINE BLUFF","USH00142401","USH00","USH00380559",6
"USH00",36.2639,-90.9681,96,"AR","POCAHONTAS 1","USH00","USH00","USH00",6
"USH00018438",33.8203,-93.3878,93.9,"AR","PRESCOTT 2 NNW","USH00","USH00262780","USH00",6
"USH00",33.81,-91.2703,45.7,"AR","ROHWER 2 NNE","USH00","USH00","USH00",6
"USH00",35.3028,-93.6369,152.4,"AR","SUBIACO","USH00142459","USH00","USH00380764",6
"USH00",39.2583,-75.5167,9.1,"DE","DOVER","USH00","USH00","USH00",5
"USH00",38.8161,-75.5761,13.7,"DE","GREENWOOD 2NE","USH00147305","USH00","USH00388440",5
"USH00",38.8983,-75.425,10.7,"DE","MILFORD 2 SE","USH00","USH00","USH00",5
"USH00028815",39.6694,-75.7514,27.4,"DE","NEWARK UNIV FARM","USH00","USH00285728","USH00",5
"USH00",39.7739,-75.5414,82.3,"DE","WILMINGTON PORTER RES","USH00","USH00","USH00",5
"USH00",30.7244,-86.0939,74.7,"FL","DE FUNIAK SPRINGS 1","USH00148495","USH00","USH00389327",6
"USH00",30.6589,-81.4636,4,"FL","FERNANDINA BEACH","USH00","USH00","USH00",5
"USH00",30.1853,-82.5942,59.4,"FL","LAKE CITY 2 E","USH00155389","USH00","USH00",5
"USH00029652",30.4517,-83.4119,36.6,"FL","MADISON","USH00","USH00290692","USH00",5
"USH00",30.4781,-87.1869,34.1,"FL","PENSACOLA RGNL AP","USH00150619","USH00","USH00390020",6
"USH00",30.3931,-84.3533,16.8,"FL","TALLAHASSEE WSO AP","USH00","USH00","USH00",5
"USH00031596",31.5339,-84.1489,54.9,"GA","ALBANY 3 SE","USH00","USH00291469","USH00",5
"USH00",30.8228,-84.6175,57.9,"GA","BAINBRIDGE INTL PAPER","USH00","USH00","USH00",5
"USH00",31.1681,-81.5022,4,"GA","BRUNSWICK","USH00152791","USH00","USH00390128",5
"USH00",31.1903,-84.2036,53.3,"GA","CAMILLA 3SE","USH00","USH00","USH00",5
"USH00031632",33.5972,-83.8436,234.4,"GA","COVINGTON","USH00","USH00291515","USH00",5
"USH00",34.5292,-83.99,475.5,"GA","DAHLONEGA","USH00","USH00","USH00",5
"USH00",32.2003,-83.2058,121.9,"GA","EASTMAN 1 W","USH00153028","USH00","USH00391392",5
"USH00",34.3006,-83.86,356.6,"GA","GAINESVILLE","USH00","USH00","USH00",5
"USH00032356",31.9881,-81.9522,61,"GA","GLENNVILLE 3NW","USH00","USH00291664","USH00",5
"USH00",33.2842,-83.4681,74.7,"GA","HAWKINSVILLE","USH00","USH00","USH00",5
"USH00",33.0831,-83.2497,112.2,"GA","MILLEDGEVILLE","USH00153430","USH00","USH00391739",5
"USH00",32.8703,-81.9672,59.4,"GA","MILLEN 4 N","USH00","USH00","USH00",5
"USH00032444",33.4544,-84.8178,272.5,"GA","NEWNAN 5N","USH00","USH00291813","USH00",5
"USH00022442",30.7836,-83.5692,56.4,"GA","QUITMAN 2 NW","USH00","USH00","USH00",5
"USH00",34.2453,-85.1514,200.9,"GA","ROME","USH00153762","USH00","USH00391972",5
"USH00",32.13,-81.21,14,"GA","SAVANNAH INTL AP","USH00156091","USH00","USH00",5
"USH00032930",32.6875,-84.5197,195.1,"GA","TALBOTTON","USH00","USH00291887","USH00",5
"USH00",31.4461,-83.4767,115.8,"GA","TIFTON","USH00","USH00","USH00",5
"USH00",34.5786,-83.3319,308.5,"GA","TOCCOA","USH00153994","USH00","USH00392429",5
"USH00",33.4028,-82.6222,149.4,"GA","WARRENTON","USH00","USH00","USH00",5
"USH00034572",33.7264,-82.7058,189,"GA","WASHINGTON 2 ESE","USH00","USH00292608","USH00",5
"USH00",31.2514,-82.3128,44.2,"GA","WAYCROSS 4 NE","USH00","USH00052432","USH00",5
"USH00",32.8694,-85.1892,175.3,"GA","WEST POINT","USH00154703","USH00","USH00392797",5
"USH00",37.4814,-89.2344,195.1,"IL","ANNA 2 NNE","USH00","USH00295147","USH00",6
"USH00",39.2883,-89.8703,189.3,"IL","CARLINVILLE","USH00161729","USH00","USH00",6
"USH00040693",39.4761,-88.1653,198.1,"IL","CHARLESTON","USH00","USH00295273","USH00",6
"USH00",39.8275,-88.9525,189,"IL","DECATUR WTP","USH00161411","USH00","USH00395481",6
"USH00040924",37.9878,-89.1931,128,"IL","DU QUOIN 4 SE","USH00","USH00295960","USH00",6
"USH00",37.7408,-88.5244,111.3,"IL","HARRISBURG","USH00162151","USH00","USH00395536",6
"USH00",39.15,-89.4833,192,"IL","HILLSBORO","USH00","USH00","USH00",6
"USH00",39.7347,-90.1978,185.9,"IL","JACKSONVILLE 2E","USH00","USH00","USH00",6
"USH00",38.0844,-88.5425,135.9,"IL","MCLEANSBORO","USH00","USH00","USH00",6
"USH00",38.3483,-88.8533,149.4,"IL","MT VERNON 3 NE","USH00163800","USH00","USH00396597",6
"USH00",38.7003,-88.0819,146.3,"IL","OLNEY 2S","USH00166117","USH00","USH00",6
"USH00",39.0028,-87.6225,140.2,"IL","PALESTINE","USH00","USH00297609","USH00",6
"USH00",39.3722,-89.0242,213.4,"IL","PANA 3E","USH00164407","USH00","USH00396947",6
"USH00",39.6356,-87.6933,207.3,"IL","PARIS WTR WKS","USH00","USH00","USH00",6
"USH00041912",39.8058,-90.8236,198.1,"IL","PERRY 6 NW","USH00","USH00297867","USH00",6
"USH00",38.1167,-89.7167,163.1,"IL","SPARTA 1 W","USH00","USH00","USH00",6
"USH00",39.4411,-90.3789,176.8,"IL","WHITE HALL 1 E","USH00165026","USH00","USH00398932",6
"USH00",39.4381,-88.5986,210.3,"IL","WINDSOR","USH00","USH00","USH00",6
"USH00",39.1742,-86.5214,253,"IN","BLOOMINGTON IN UNIV","USH00166665","USH00","USH00",5
"USH00042319",39.4239,-85.0128,192,"IN","BROOKVILLE","USH00","USH00298501","USH00",5
"USH00043603",39.8667,-85.1833,304.8,"IN","CAMBRIDGE CITY 3 N","USH00","USH00","USH00",5
"USH00",38.4833,-85.7,167.6,"IN","CHARLESTOWN 5 NNW","USH00167344","USH00","USH00401790",5
"USH00",39.1978,-85.9211,189.3,"IN","COLUMBUS","USH00","USH00","USH00",5
"USH00",39.6439,-86.8767,224,"IN","GREENCASTLE 1 W","USH00","USH00","USH00",5
"USH00042910",39.7858,-85.7611,263.7,"IN","GREENFIELD","USH00","USH00299156","USH00",5
"USH00042941",38.7369,-85.3942,140.2,"IN","MADISON SEWAGE PLT","USH00","USH00299165","USH00",5
"USH00",37.9286,-87.8956,108.8,"IN","MT VERNON","USH00169806","USH00","USH00402202",5
"USH00",38.8894,-86.5519,198.1,"IN","OOLITIC PURDUE EX FRM","USH00","USH00","USH00",5
"USH00043161",38.5556,-86.4858,170.7,"IN","PAOLI","USH00","USH00300023","USH00",5
"USH00",38.3567,-87.5906,146.3,"IN","PRINCETON 1 W","USH00","USH00","USH00",5
"USH00043257",39.7594,-87.2269,211.2,"IN","ROCKVILLE","USH00","USH00300042","USH00",5
"USH00",39.6042,-85.4528,292.6,"IN","RUSHVILLE","USH00","USH00300047","USH00",5
"USH00",38.6111,-86.0889,243.8,"IN","SALEM","USH00170814","USH00","USH00402589",5
"USH00",38.6886,-85.785,173.7,"IN","SCOTTSBURG","USH00177174","USH00","USH00",5
"USH00043747",38.9822,-85.9822,173.7,"IN","SEYMOUR 2 N","USH00","USH00300085","USH00",5
"USH00",38.5528,-86.7944,154.2,"IN","SHOALS 8 S","USH00","USH00","USH00",5
"USH00",38.7436,-85.0761,150.9,"IN","VEVAY","USH00171628","USH00","USH00404561",5
"USH00",38.7386,-87.4878,137.2,"IN","VINCENNES 5 NE","USH00176430","USH00","USH00",5
"USH00043761",38.6489,-87.1989,152.4,"IN","WASHINGTON 1 W","USH00","USH00300093","USH00",5
"USH00",39.9961,-86.3542,289,"IN","WHITESTOWN","USH00172426","USH00","USH00405187",6
"USH00",37.155,-98.0283,408.4,"KS","ANTHONY","USH00","USH00","USH00",6
"USH00",39.5756,-95.1108,288,"KS","ATCHISON","USH00","USH00","USH00",6
"USH00",37.1764,-94.8397,275.8,"KS","COLUMBUS","USH00","USH00","USH00",6
"USH00045385",38.6758,-96.5097,402.3,"KS","COUNCIL GROVE LAKE","USH00","USH00301185","USH00",6
"USH00",37.8183,-96.8444,393.2,"KS","EL DORADO","USH00","USH00","USH00",6
"USH00",38.7278,-98.2267,466.3,"KS","ELLSWORTH","USH00179891","USH00","USH00410120",6
"USH00",37.8428,-94.7086,257.6,"KS","FT SCOTT","USH00","USH00","USH00",6
"USH00",39.6703,-95.5225,313.9,"KS","HORTON","USH00","USH00","USH00",6
"USH00",37.2364,-95.7003,245.4,"KS","INDEPENDENCE","USH00180700","USH00","USH00410144",6
"USH00",38.9583,-95.2514,306.3,"KS","LAWRENCE","USH00181385","USH00","USH00410174",6
"USH00",39.3256,-94.9189,265.2,"KS","LEAVENWORTH","USH00","USH00","USH00",6
"USH00",39.1972,-96.5814,324.6,"KS","MANHATTAN","USH00","USH00","USH00",6
"USH00",38.3772,-97.6097,463.3,"KS","MCPHERSON","USH00181750","USH00","USH00410493",6
"USH00",37.2767,-98.58,448.1,"KS","MEDICINE LODGE","USH00","USH00","USH00",6
"USH00046118",39.1247,-97.7047,402.9,"KS","MINNEAPOLIS","USH00","USH00301966","USH00",6
"USH00",38.8875,-94.7603,321.6,"KS","OLATHE 3E","USH00182280","USH00","USH00",6
"USH00046175",38.6133,-95.2808,280.1,"KS","OTTAWA","USH00","USH00301974","USH00",6
"USH00",37.1317,-96.1861,274.3,"KS","SEDAN","USH00187575","USH00","USH00",6
"USH00",38.4536,-82.6131,170.7,"KY","ASHLAND","USH00183675","USH00","USH00410832",5
"USH00",36.8825,-83.8819,301.8,"KY","BARBOURVILLE","USH00","USH00","USH00",5
"USH00046506",37.5733,-84.2908,326.1,"KY","BEREA COLLEGE","USH00","USH00302129","USH00",5
"USH00",36.9647,-86.4239,160.9,"KY","BOWLING GREEN RGNL AP","USH00","USH00307497","USH00",6
"USH00",38.1167,-83.55,207.3,"KY","FARMERS 2 S","USH00185111","USH00","USH00410902",5
"USH00",38.2022,-84.8825,140.8,"KY","FRANKFORT DOWNTOWN","USH00","USH00","USH00",5
"USH00046508",37.2592,-85.5022,179.8,"KY","GREENSBURG","USH00","USH00302610","USH00",6
"USH00",37.7558,-87.6456,136.9,"KY","HENDERSON 8 SSW","USH00","USH00","USH00",6
"USH00",36.8492,-87.5206,158.5,"KY","HOPKINSVILLE","USH00185718","USH00","USH00411000",6
"USH00",37.5108,-86.2892,189,"KY","LEITCHFIELD 2 N","USH00180470","USH00","USH00419330",6
"USH00046719",38.2,-85.2,222.5,"KY","SHELBYVILLE 1 E","USH00","USH00303033","USH00",5
"USH00",36.7333,-84.15,286.5,"KY","WILLIAMSBURG","USH00","USH00","USH00",5
"USH00",38.6586,-84.6106,286.5,"KY","WILLIAMSTOWN 3 W","USH00185985","USH00","USH00411048",5
"USH00",31.3206,-92.4611,26.5,"LA","ALEXANDRIA","USH00","USH00","USH00",6
"USH00046730",30.7094,-90.525,51.8,"LA","AMITE","USH00","USH00303184","USH00",6
"USH00",32.7689,-92.0056,45.7,"LA","BASTROP","USH00","USH00303177","USH00",6
"USH00",30.5372,-91.1469,19.5,"LA","BATON ROUGE METRO AP","USH00186620","USH00","USH00411138",6
"USH00",30.9594,-92.1786,24.4,"LA","BUNKIE","USH00","USH00","USH00",6
"USH00046826",32.5133,-92.3478,54.9,"LA","CALHOUN RSCH STN","USH00","USH00303259","USH00",6
"USH00",30.5272,-90.1114,12.2,"LA","COVINGTON 4 NNW","USH00","USH00","USH00",6
"USH00",30.0717,-91.0275,9.1,"LA","DONALDSONVILLE 4 SW","USH00186770","USH00","USH00411528",6
"USH00047195",30.4192,-92.0439,16.8,"LA","GRAND COTEAU","USH00","USH00303319","USH00",6
"USH00",30.2003,-92.6642,7.6,"LA","JENNINGS","USH00187330","USH00","USH00411772",6
"USH00",30.205,-91.9875,11.6,"LA","LAFAYETTE FCWOS","USH00","USH00","USH00",6
"USH00047296",32.9078,-93.7981,88.4,"LA","PLAIN DEALING 4 W","USH00","USH00","USH00",6
"USH00047300",31.9497,-91.2336,23.8,"LA","ST JOSEPH 3 N","USH00187806","USH00","USH00412015",6
"USH00047306",32.0994,-91.7019,24.4,"LA","WINNSBORO 5 SSE","USH00","USH00304102","USH00",6
"USH00",39.0303,-76.9314,44.2,"MD","BELTSVILLE","USH00","USH00","USH00",5
"USH00",38.5667,-76.0667,3,"MD","CAMBRIDGE WATER TRMT P","USH00190120","USH00","USH00412598",5
"USH00",39.2167,-76.0519,12.2,"MD","CHESTERTOWN","USH00","USH00","USH00",5
"USH00047965",39.6419,-78.7561,222.5,"MD","CUMBERLAND 2","USH00","USH00304791","USH00",5
"USH00",38.8833,-75.8,14.9,"MD","DENTON 2 E","USH00","USH00","USH00",5
"USH00",38.9689,-76.8042,45.7,"MD","GLENN DALE BELL STN","USH00190535","USH00","USH00412679",5
"USH00",39.0847,-76.9003,121.9,"MD","LAUREL 3 W","USH00191622","USH00","USH00",5
"USH00048702",39.2811,-76.61,6.1,"MD","MD SCI CTR BALTIMORE","USH00","USH00304796","USH00",5
"USH00",39.2739,-75.87,9.1,"MD","MILLINGTON 1 SE","USH00","USH00","USH00",5
"USH00",38.6833,-76.6667,48.8,"MD","OWINGS FERRY LANDING","USH00","USH00","USH00",5
"USH00048758",38.2122,-75.6822,6.1,"MD","PRINCESS ANNE","USH00","USH00304844","USH00",5
"USH00",38.7144,-76.1897,3,"MD","ROYAL OAK 2 SSW","USH00","USH00","USH00",5
"USH00",38.365,-75.5892,3,"MD","SALISBURY","USH00193213","USH00","USH00412906",5
"USH00",39.55,-76.9667,233.2,"MD","WESTMINSTER POL BRKS","USH00198181","USH00","USH00",5
"USH00048839",39.3333,-76.8667,140.2,"MD","WOODSTOCK","USH00","USH00304912","USH00",5
"USH00",33.83,-88.5214,60.4,"MS","ABERDEEN","USH00202423","USH00","USH00416794",6
"USH00",34.3061,-89.9806,67.1,"MS","BATESVILLE 2 SW","USH00","USH00","USH00344384",6
"USH00053038",34.6628,-88.5797,149.4,"MS","BOONEVILLE","USH00","USH00308737","USH00",6
"USH00",31.5447,-90.4581,132.6,"MS","BROOKHAVEN CITY","USH00","USH00308733","USH00",6
"USH00",32.6714,-90.0361,76.2,"MS","CANTON 4N","USH00202737","USH00308739","USH00416892",6
"USH00",34.1864,-90.5572,52.7,"MS","CLARKSDALE","USH00","USH00","USH00",6
"USH00053146",31.2503,-89.8361,45.7,"MS","COLUMBIA","USH00","USH00308906","USH00",6
"USH00",33.4678,-88.3847,44.2,"MS","COLUMBUS","USH00","USH00308902","USH00",6
"USH00",34.8792,-88.6178,117.3,"MS","CORINTH 7 SW","USH00203632","USH00","USH00417079",6
"USH00",31.9461,-90.3775,148.4,"MS","CRYSTAL SPGS EXP STN","USH00","USH00","USH00413862",6
"USH00053662",32.36,-89.4208,137.2,"MS","FOREST","USH00","USH00308910","USH00",6
"USH00",33.3592,-91.06,38.1,"MS","GREENVILLE","USH00","USH00308058","USH00",6
"USH00",31.2547,-89.3392,117.3,"MS","HATTIESBURG 5SW","USH00203823","USH00","USH00417336",6
"USH00",34.8161,-89.9853,115.8,"MS","HERNANDO","USH00","USH00","USH00",6
"USH00053951",34.8219,-89.4347,147.2,"MS","HOLLY SPRINGS 4 N","USH00","USH00308944","USH00",6
"USH00",33.0583,-89.5797,125,"MS","KOSCIUSKO","USH00","USH00","USH00",6
"USH00",31.6756,-89.1236,68.6,"MS","LAUREL","USH00204090","USH00","USH00417622",6
"USH00",33.1353,-89.0711,177.1,"MS","LOUISVILLE","USH00","USH00","USH00",6
"USH00054076",31.5519,-90.1058,58.2,"MS","MONTICELLO","USH00","USH00309000","USH00",6
"USH00",33.4519,-90.5094,35.7,"MS","MOORHEAD","USH00","USH00","USH00",6
"USH00",31.5889,-91.3408,59.4,"MS","NATCHEZ","USH00204104","USH00","USH00417945",6
"USH00",30.3964,-88.4781,3.7,"MS","PASCAGOULA 3 NE","USH00","USH00","USH00",6
"USH00054770",34.1381,-88.9983,123.4,"MS","PONTOTOC EXP STN","USH00","USH00309292","USH00",6
"USH00",30.8408,-89.5453,95.4,"MS","POPLARVILLE EXP STN","USH00","USH00","USH00",6
"USH00",31.985,-90.9719,36.6,"MS","PORT GIBSON 1 NE","USH00204244","USH00","USH00418201",6
"USH00",33.4692,-88.7822,56.4,"MS","STATE UNIV","USH00","USH00","USH00",6
"USH00054834",34.3803,-89.5358,124.4,"MS","UNIVERSITY","USH00","USH00309670","USH00",6
"USH00",34.1583,-89.6311,94.5,"MS","WATER VALLEY","USH00","USH00301207","USH00",6
"USH00",30.2947,-89.3831,2.4,"MS","WAVELAND","USH00205434","USH00","USH00418433",6
"USH00",31.6772,-88.6708,61,"MS","WAYNESBORO 2 W","USH00205436","USH00","USH00",6
"USH00055322",31.0928,-91.2328,121.9,"MS","WOODVILLE 4 ESE","USH00","USH00310090","USH00",6
"USH00",32.9028,-90.3817,32.6,"MS","YAZOO CITY 5 NNE","USH00","USH00","USH00",6
"USH00",38.1869,-94.0281,259.7,"MO","APPLETON CITY","USH00205650","USH00","USH00418692",6
"USH00",39.3447,-91.1711,270.4,"MO","BOWLING GREEN 1 E","USH00","USH00","USH00",6
"USH00055722",39.4247,-93.1331,201.8,"MO","BRUNSWICK","USH00","USH00311458","USH00",6
"USH00",36.1686,-89.6642,82.3,"MO","CARUTHERSVILLE","USH00","USH00313897","USH00",6
"USH00",38.395,-93.7711,234.7,"MO","CLINTON","USH00205662","USH00","USH00418910",6
"USH00057167",36.6206,-90.8125,88.1,"MO","DONIPHAN","USH00","USH00311677","USH00",6
"USH00",37.7922,-90.4103,282.9,"MO","FARMINGTON","USH00","USH00","USH00",6
"USH00",38.585,-92.1825,204.2,"MO","JEFFERSON CITY WTP","USH00205690","USH00","USH00419532",6
"USH00",37.4994,-94.2697,298.7,"MO","LAMAR","USH00","USH00","USH00",6
"USH00057337",37.685,-92.6936,389.8,"MO","LEBANON 2W","USH00","USH00312635","USH00",6
"USH00",38.8803,-94.3358,304.8,"MO","LEES SUMMIT REED WR","USH00","USH00","USH00",6
"USH00",39.1828,-93.855,251.5,"MO","LEXINGTON 3E","USH00205816","USH00","USH00420086",6
"USH00",37.3908,-93.9489,326.1,"MO","LOCKWOOD","USH00","USH00","USH00",6
"USH00057936",37.3036,-89.9664,118.9,"MO","MARBLE HILL","USH00","USH00312719","USH00",6
"USH00",39.1756,-91.8861,244.4,"MO","MEXICO","USH00","USH00","USH00",6
"USH00",39.4194,-92.4369,262.1,"MO","MOBERLY","USH00206300","USH00","USH00420738",6
"USH00",37.1528,-92.2636,442,"MO","MTN GROVE 2 N","USH00","USH00","USH00",6
"USH00058204",36.8639,-94.36,308.2,"MO","NEOSHO","USH00","USH00313017","USH00",6
"USH00",37.9572,-91.7758,355.7,"MO","ROLLA UNI OF MISSOURI","USH00","USH00","USH00",6
"USH00",39.9714,-91.8872,210.3,"MO","STEFFENVILLE","USH00","USH00","USH00",6
"USH00058429",38.9664,-93.4194,205.7,"MO","SWEET SPRINGS","USH00","USH00313510","USH00",6
"USH00",38.2581,-93.3989,192.6,"MO","TRUMAN DAM & RSVR","USH00","USH00","USH00",6
"USH00",38.835,-91.1386,252.1,"MO","WARRENTON 1 N","USH00","USH00","USH00",6
"USH00087020",39.3792,-74.4242,3,"NJ","ATLANTIC CITY","USH00","USH00323207","USH00",5
"USH00",39.8144,-74.7883,30.5,"NJ","INDIAN MILLS 2 W","USH00217460","USH00","USH00428119",5
"USH00088758",39.9511,-74.9697,13.7,"NJ","MOORESTOWN","USH00","USH00323594","USH00",5
"USH00",39.95,-74.2167,30.5,"NJ","TOMS RIVER","USH00","USH00","USH00",5
"USH00",35.3992,-80.1994,185.9,"NC","ALBEMARLE","USH00225987","USH00335669","USH00443192",5
"USH00",35.2325,-75.6219,3.4,"NC","CAPE HATTERAS AP","USH00","USH00","USH00",5
"USH00099157",35.9086,-79.0794,152.4,"NC","CHAPEL HILL 2 W","USH00","USH00332119","USH00",5
"USH00",36.0164,-76.5517,3,"NC","EDENTON","USH00","USH00","USH00",5
"USH00",36.3097,-76.205,2.4,"NC","ELIZABETH CITY","USH00226009","USH00","USH00444101",5
"USH00",35.0583,-78.8583,29.3,"NC","FAYETTEVILLE PWC","USH00","USH00","USH00",5
"USH00099186",35.3444,-77.9647,33.2,"NC","GOLDSBORO 4 SE","USH00","USH00332791","USH00",5
"USH00",36.3481,-78.4119,146.3,"NC","HENDERSON 2 NNW","USH00","USH00","USH00",5
"USH00099291",35.1967,-77.5433,7.3,"NC","KINSTON 7 SE","USH00","USH00333375","USH00",5
"USH00",35.915,-81.5378,365.8,"NC","LENOIR","USH00","USH00","USH00",5
"USH00",36.1028,-78.3039,79.2,"NC","LOUISBURG","USH00226718","USH00","USH00444876",5
"USH00",34.6269,-79.025,34.1,"NC","LUMBERTON","USH00220792","USH00","USH00",5
"USH00100010",35.6631,-82.0292,446.8,"NC","MARION 2 NW","USH00","USH00333758","USH00",5
"USH00",34.9797,-80.5233,167.6,"NC","MONROE 2 SE","USH00227111","USH00","USH00444909",5
"USH00",34.7336,-76.7358,3,"NC","MOREHEAD CITY 2 WNW","USH00227106","USH00","USH00",5
"USH00100448",35.7308,-81.6717,353.6,"NC","MORGANTON","USH00","USH00333780","USH00",5
"USH00",36.4992,-80.6508,317.3,"NC","MT AIRY 2 W","USH00","USH00","USH00",5
"USH00",36.3825,-79.6947,271.3,"NC","REIDSVILLE 2 NW","USH00227128","USH00","USH00446139",5
"USH00",35.6836,-80.4822,213.4,"NC","SALISBURY","USH00225687","USH00","USH00442368",5
"USH00100470",35.5164,-78.3458,45.7,"NC","SMITHFIELD","USH00","USH00334189","USH00",5
"USH00",33.9947,-78.0078,6.1,"NC","SOUTHPORT 5 N","USH00","USH00","USH00",5
"USH00",35.81,-80.8808,289.6,"NC","STATESVILLE 2 NNE","USH00227132","USH00","USH00446626",5
"USH00",35.8847,-77.5386,10.7,"NC","TARBORO 1 S","USH00","USH00","USH00",5
"USH00",35.6939,-77.9456,33.5,"NC","WILSON 3 SW","USH00228374","USH00","USH00446712",5
"USH00",39.6106,-82.9547,205.1,"OH","CIRCLEVILLE","USH00230204","USH00","USH00450729",5
"USH00104670",39.2,-83.6167,335.3,"OH","HILLSBORO","USH00235903","USH00338552","USH00",5
"USH00",39.6539,-81.8569,231.6,"OH","MC CONNELLSVILLE LK 7","USH00","USH00","USH00",5
"USH00104845",39.8386,-81.9167,310.9,"OH","PHILO 3 SW","USH00","USH00338822","USH00",5
"USH00103942",38.7569,-82.8872,164.6,"OH","PORTSMOUTH-SCIOTOVILLE","USH00","USH00","USH00",5
"USH00",39.1114,-82.9797,170.7,"OH","WAVERLY","USH00","USH00","USH00",5
"USH00",34.7864,-96.685,309.4,"OK","ADA","USH00","USH00","USH00",6
"USH00",34.5903,-99.3344,420.6,"OK","ALTUS IRIG RSCH STN","USH00232289","USH00","USH00451630",6
"USH00",34.2208,-95.615,143.3,"OK","ANTLERS","USH00","USH00","USH00451630",6
"USH00105462",34.1714,-97.1294,268.2,"OK","ARDMORE","USH00","USH00340017","USH00451650",6
"USH00",36.7683,-96.0261,217.9,"OK","BARTLESVILLE MUNI AP","USH00","USH00","USH00",6
"USH00105544",35.1756,-98.5794,451.4,"OK","CARNEGIE 5 NE","USH00","USH00","USH00",6
"USH00",36.7747,-98.3583,359.7,"OK","CHEROKEE","USH00234271","USH00","USH00451939",6
"USH00",36.3225,-95.5808,179.2,"OK","CLAREMORE 2 ENE","USH00","USH00","USH00453284",6
"USH00105685",34.0003,-96.3686,182.9,"OK","DURANT","USH00","USH00340256","USH00",6
"USH00101663",36.4194,-97.8747,379.5,"OK","ENID","USH00","USH00","USH00",6
"USH00",35.6267,-98.3225,487.7,"OK","GEARY","USH00","USH00","USH00",6
"USH00",35.8161,-97.395,338.3,"OK","GUTHRIE 5S","USH00","USH00","USH00",6
"USH00",36.0942,-97.835,357.8,"OK","HENNESSEY 4 ESE","USH00","USH00","USH00",6
"USH00106305",34.9894,-99.0525,474.3,"OK","HOBART MUNI AP","USH00","USH00340548","USH00",6
"USH00101380",35.0567,-96.3861,260.6,"OK","HOLDENVILLE 2SSE","USH00","USH00","USH00",6
"USH00",36.7222,-97.7903,318.5,"OK","JEFFERSON","USH00233649","USH00","USH00452508",6
"USH00",35.8583,-97.9294,320,"OK","KINGFISHER","USH00","USH00","USH00",6
"USH00",34.6097,-98.4572,350.5,"OK","LAWTON","USH00234904","USH00","USH00452675",6
"USH00",34.8911,-99.5017,486.2,"OK","MANGUM","USH00","USH00","USH00",6
"USH00106542",35.505,-96.9767,281.9,"OK","MEEKER 5 W","USH00","USH00340908","USH00",6
"USH00",36.8833,-94.8833,245.4,"OK","MIAMI","USH00","USH00","USH00",6
"USH00",35.7781,-95.3339,157.9,"OK","MUSKOGEE","USH00235027","USH00","USH00452914",6
"USH00106891",36.8914,-97.0586,347.5,"OK","NEWKIRK 1NW","USH00","USH00341243","USH00",6
"USH00",36.1217,-98.315,370.3,"OK","OKEENE","USH00","USH00","USH00",6
"USH00",35.4253,-96.3033,285,"OK","OKEMAH","USH00235253","USH00","USH00453222",6
"USH00",35.6239,-96.025,197.2,"OK","OKMULGEE WTR WKS","USH00","USH00","USH00453226",6
"USH00107264",34.7253,-97.2814,286.5,"OK","PAULS VALLEY 4 WSW","USH00","USH00341504","USH00",6
"USH00",36.6692,-96.3472,254.5,"OK","PAWHUSKA","USH00","USH00","USH00",6
"USH00",36.2886,-97.2897,312.4,"OK","PERRY","USH00235541","USH00","USH00454154",6
"USH00",35.0539,-94.6264,134.1,"OK","POTEAU WTR WKS","USH00","USH00","USH00",6
"USH00107386",36.1175,-97.095,272.8,"OK","STILLWATER 2 W","USH00","USH00341724","USH00",6
"USH00",35.9369,-94.9644,259.1,"OK","TAHLEQUAH","USH00","USH00","USH00",6
"USH00",34.1747,-97.9964,278,"OK","WAURIKA","USH00235671","USH00","USH00454748",6
"USH00",35.52,-98.6986,493.2,"OK","WEATHERFORD","USH00235175","USH00","USH00455932",6
"USH00108080",35.4814,-95.2039,167.6,"OK","WEBBERS FALLS 5 WSW","USH00","USH00341828","USH00454752",6
"USH00",39.9353,-77.6394,195.1,"PA","CHAMBERSBURG 1 ESE","USH00240364","USH00","USH00456914",5
"USH00",39.805,-77.2292,164.6,"PA","EISENHOWER NHS","USH00","USH00","USH00459291",5
"USH00",39.915,-79.7192,291.4,"PA","UNIONTOWN 1 NE","USH00","USH00","USH00",5
"USH00",39.9708,-75.635,114.3,"PA","WEST CHESTER 2 NW","USH00241737","USH00","USH00457773",5
"USH00114823",39.9167,-76.75,118.9,"PA","YORK 3 SSW PUMP","USH00","USH00345509","USH00",5
"USH00115079",33.4925,-81.6958,150,"SC","AIKEN 5SE","USH00","USH00345779","USH00",5
"USH00",34.5283,-82.6606,243.8,"SC","ANDERSON","USH00","USH00","USH00",5
"USH00",32.3953,-80.6956,7.6,"SC","BEAUFORT WWTP","USH00242409","USH00","USH00458059",5
"USH00",33.3631,-81.3292,98.8,"SC","BLACKVILLE 3 W","USH00","USH00","USH00",5
"USH00115326",34.0906,-82.5883,161.5,"SC","CALHOUN FALLS","USH00","USH00345855","USH00",5
"USH00",34.2428,-80.6564,42.7,"SC","CAMDEN 3 W","USH00","USH00","USH00",5
"USH00",32.78,-79.9319,3,"SC","CHARLESTON CITY","USH00242689","USH00","USH00458207",5
"USH00",34.7319,-79.8833,42.7,"SC","CHERAW","USH00","USH00","USH00",5
"USH00115515",34.6603,-82.8236,251.2,"SC","CLEMSON UNIV","USH00","USH00346130","USH00",5
"USH00",33.9831,-81.0167,73.8,"SC","COLUMBIA UNIV OF SC","USH00","USH00","USH00",5
"USH00",33.8314,-79.0558,6.1,"SC","CONWAY","USH00242793","USH00","USH00458773",5
"USH00",34.3011,-79.8767,45.7,"SC","DARLINGTON","USH00","USH00","USH00",5
"USH00115712",33.3619,-79.2239,3,"SC","GEORGETOWN 2 E","USH00","USH00346139","USH00",5
"USH00",34.8847,-82.2239,287.4,"SC","GRNVL SPART INTL AP","USH00","USH00","USH00",5
"USH00",34.1997,-82.1711,187.5,"SC","GREENWOOD","USH00243013","USH00","USH00458928",5
"USH00",34.5367,-80.5972,138.1,"SC","KERSHAW 1SW","USH00","USH00","USH00458931",5
"USH00115768",33.6775,-79.8283,22.9,"SC","KINGSTREE","USH00","USH00346278","USH00",5
"USH00",34.4989,-82.0219,179.5,"SC","LAURENS","USH00","USH00","USH00",5
"USH00",34.1942,-81.415,216.7,"SC","LITTLE MTN","USH00243089","USH00","USH00459012",5
"USH00",34.2978,-81.6236,145.1,"SC","NEWBERRY","USH00","USH00","USH00",5
"USH00115833",33.4886,-80.8733,54.9,"SC","ORANGEBURG 2","USH00","USH00346629","USH00",5
"USH00",33.9978,-81.7747,146.3,"SC","SALUDA","USH00","USH00","USH00",5
"USH00",34.635,-81.5206,158.5,"SC","SANTUCK","USH00243110","USH00","USH00459074",5
"USH00",33.0367,-80.2325,19.8,"SC","SUMMERVILLE 4W","USH00","USH00","USH00",5
"USH00115901",33.9364,-80.3569,53.9,"SC","SUMTER","USH00","USH00346638","USH00",5
"USH00",34.7483,-83.0842,298.7,"SC","WALHALLA","USH00","USH00","USH00",5
"USH00",34.3739,-81.0928,170.7,"SC","WINNSBORO","USH00243139","USH00","USH00459238",5
"USH00",34.9381,-81.0317,210.3,"SC","WINTHROP UNIV","USH00","USH00","USH00",5
"USH00115943",32.68,-80.8417,7.6,"SC","YEMASSEE","USH00","USH00346670","USH00",5
"USH00",36.5467,-87.3567,116.4,"TN","CLARKSVILLE WWTP","USH00244345","USH00","USH00465707",6
"USH00",34.9939,-84.3758,442,"TN","COPPERHILL","USH00","USH00","USH00",5
"USH00116910",35.5497,-89.7,117.3,"TN","COVINGTON 3 SW","USH00","USH00349395","USH00",6
"USH00",36.0747,-87.3936,237.7,"TN","DICKSON","USH00244364","USH00","USH00466867",6
"USH00",36.4819,-87.8628,144.8,"TN","DOVER 1 W","USH00242112","USH00","USH00",6
"USH00117551",35.6214,-88.8456,121.9,"TN","JACKSON EXP STN","USH00","USH00349422","USH00",6
"USH00",35.4139,-86.8086,239.9,"TN","LEWISBURG EXP STN","USH00","USH00","USH00",6
"USH00",35.6717,-85.7811,286.5,"TN","MC MINNVILLE","USH00244522","USH00","USH00466989",6
"USH00",35.9203,-86.3728,163.1,"TN","MURFREESBORO 5 N","USH00","USH00","USH00466991",6
"USH00118147",35.9833,-83.2008,315.8,"TN","NEWPORT 1 NW","USH00","USH00349445","USH00",5
"USH00",36.4161,-82.9839,413,"TN","ROGERSVILLE 1 NE","USH00","USH00","USH00",5
"USH00",35.3453,-86.2089,311.5,"TN","TULLAHOMA","USH00244558","USH00","USH00467029",6
"USH00",36.3925,-89.0317,106.7,"TN","UNION CITY","USH00","USH00","USH00463353",6
"USH00118740",35.3042,-87.7592,228.6,"TN","WAYNESBORO","USH00","USH00350304","USH00",6
"USH00",32.7294,-99.3017,426.7,"TX","ALBANY","USH00","USH00","USH00",6
"USH00",30.1058,-98.4286,419.1,"TX","BLANCO","USH00245076","USH00","USH00",6
"USH00",30.1592,-96.3972,95.4,"TX","BRENHAM","USH00245338","USH00","USH00469610",6
"USH00",31.7383,-98.9456,426.7,"TX","BROWNWOOD 2ENE","USH00245337","USH00","USH00469605",6
"USH00",33.6164,-95.0717,132.6,"TX","CLARKSVILLE 2NE","USH00","USH00","USH00",6
"USH00",32.1078,-96.4747,125.9,"TX","CORSICANA","USH00","USH00","USH00",6
"USH00",32.0628,-98.3047,447.4,"TX","DUBLIN 2SE","USH00245668","USH00","USH00470349",6
"USH00",33.6461,-97.0592,265.2,"TX","GAINESVILLE 5 ENE","USH00","USH00","USH00",6
"USH00",33.1678,-96.0983,166.1,"TX","GREENVILLE KGVL RADIO","USH00245761","USH00","USH00471078",6
"USH00120784",33.1578,-99.7456,487.7,"TX","HASKELL","USH00","USH00351862","USH00",6
"USH00",31.0717,-98.1847,314.6,"TX","LAMPASAS","USH00","USH00","USH00",6
"USH00",30.0592,-94.795,10.7,"TX","LIBERTY","USH00246157","USH00","USH00472001",6
"USH00",30.7425,-98.6542,310.9,"TX","LLANO","USH00","USH00","USH00",6
"USH00",32.5403,-94.3508,107.3,"TX","MARSHALL","USH00","USH00","USH00",6
"USH00",31.7003,-96.5142,161.5,"TX","MEXIA","USH00246470","USH00","USH00",6
"USH00",33.6744,-95.5586,165.2,"TX","PARIS","USH00","USH00","USH00",6
"USH00",34.2761,-99.7578,488.3,"TX","QUANAH 2 SW","USH00246918","USH00","USH00474546",6
"USH00121873",31.0781,-97.3183,193.5,"TX","TEMPLE","USH00","USH00352440","USH00",6
"USH00121882",32.7483,-97.77,291.1,"TX","WEATHERFORD","USH00","USH00","USH00",6
"USH00",37.7092,-78.2886,68.6,"VA","BREMO BLUFF","USH00250620","USH00","USH00",5
"USH00",38.0325,-78.5231,265.2,"VA","CHARLOTTESVILLE 2W","USH00","USH00","USH00",5
"USH00",38.4553,-78.9353,426.7,"VA","DALE ENTERPRISE","USH00250640","USH00","USH00478827",5
"USH00",36.5869,-79.3886,125,"VA","DANVILLE","USH00","USH00","USH00",5
"USH00127298",37.3264,-78.3864,137.2,"VA","FARMVILLE 2 N","USH00","USH00355734","USH00",5
"USH00121719",38.3167,-77.45,27.4,"VA","FREDERICKSBURG NP","USH00","USH00","USH00",5
"USH00",37.2992,-77.2772,12.2,"VA","HOPEWELL","USH00251145","USH00","USH00478919",5
"USH00127482",37.795,-79.4136,342.9,"VA","LEXINGTON","USH00","USH00356032","USH00",5
"USH00",39.0878,-77.6928,152.4,"VA","LINCOLN","USH00","USH00","USH00",5
"USH00",36.9033,-76.1922,9.1,"VA","NORFOLK INTL AP","USH00251200","USH00","USH00480140",5
"USH00",36.7381,-82.9967,448.1,"VA","PENNINGTON GAP","USH00","USH00","USH00",5
"USH00127522",38.2322,-78.1203,158.5,"VA","PIEDMONT RSCH STN","USH00","USH00356073","USH00",5
"USH00",36.9769,-79.8961,400.8,"VA","ROCKY MT","USH00","USH00","USH00",5
"USH00",38.1814,-79.0903,499.9,"VA","STAUNTON WATER TRMTMT PLT","USH00252020","USH00","USH00480540",5
"USH00",37.3017,-76.7039,21.3,"VA","WILLIAMSBURG 2 N","USH00","USH00","USH00",5
"USH00127646",38.9036,-78.485,205.7,"VA","WOODSTOCK 2 NE","USH00","USH00356426","USH00",5
"USH00",38.98,-80.2206,443.5,"WV","BUCKHANNON","USH00","USH00","USH00",5
"USH00",39.2047,-81.1572,231.6,"WV","CAIRO","USH00253715","USH00","USH00485830",5
"USH00",38.9339,-80.8325,216.4,"WV","GLENVILLE","USH00253710","USH00","USH00",5
"USH00",39.5436,-80.4647,335.3,"WV","MANNINGTON 8 WNW","USH00","USH00","USH00",5
"USH00",39.4019,-77.9844,162.8,"WV","MARTINSBURG E WV RGNL","USH00253735","USH00","USH00486195",5
"USH00",37.5744,-81.5356,390.1,"WV","PINEVILLE","USH00","USH00363218","USH00",5
"USH00",38.8008,-81.3619,287.4,"WV","SPENCER","USH00253910","USH00","USH00486440",5
"USH00131402",37.6731,-82.2761,231.6,"WV","WILLIAMSON","USH00","USH00362682","USH00",5
"USH00",38.5278,-81.9153,186.2,"WV","WINFIELD LOCKS","USH00","USH00362677","USH00",5
